State,District,Latitude,Longitude,District code,Population,Households_with_Internet,Housholds_with_Electric_Lighting,Households_with_Computer,Graduate_Education,Households_with_Bicycle,Households_with_Car_Jeep_Van,Households_with_Television,Having_latrine_facility_within_the_premises_Total_Households,Having_bathing_facility_Total_Households,Households_with_Television,sex_ratio,literacy_rate
Andhra Pradesh,Adilabad,19.284513950073435,78.81321233480176,532,2741239,5512,566108,45202,100226,150289,8338,306433,191052,378259,306433,100.0,54.0
Andhra Pradesh,Anantapur,14.312065561843148,77.4601584478577,553,4081148,8606,897970,48299,144915,206433,9915,559461,353948,755971,559461,98.0,57.0
Andhra Pradesh,Chittoor,13.33109263067696,78.92763898886037,554,4174064,13763,944555,67087,246409,225856,16296,611465,382377,754648,611465,100.0,64.0
Andhra Pradesh,East Godavari,16.782718320784902,82.2432074720511,545,5154296,22411,1297273,93784,263023,779052,25381,821421,800168,869464,821421,101.0,64.0
Andhra Pradesh,Guntur,15.884925767634847,80.58657614107885,548,4887813,19383,1186028,80434,221924,454586,17424,816849,762845,904201,816849,100.0,61.0
Andhra Pradesh,Hyderabad,17.38971555555556,78.46668888888888,536,3943323,149034,869721,274653,558090,229561,124106,746818,868186,873099,746818,95.0,73.0
Andhra Pradesh,Karimnagar,18.515483193277312,79.43765428571413,534,3776269,8831,926768,46584,256633,406211,14175,589283,452865,675283,589283,101.0,58.0
Andhra Pradesh,Khammam,17.683921325051784,80.67008643892335,541,2797370,8628,668519,42171,160804,267852,11887,416734,360531,403739,416734,101.0,58.0
Andhra Pradesh,Krishna,16.143872753151673,81.14805061000413,547,4517398,30438,1163932,101450,328454,525079,27969,794346,863417,897201,794346,99.0,67.0
Andhra Pradesh,Kurnool,15.43759715142429,77.90086836581717,552,4053463,10081,816721,56478,115504,271815,10622,543044,353289,702120,543044,99.0,52.0
Andhra Pradesh,Mahbubnagar,16.639546224256293,77.98933089244859,538,4053028,6153,757821,60812,98227,151754,12615,362791,231015,508140,362791,98.0,48.0
Andhra Pradesh,Medak,17.889304978038055,78.13778901903379,535,3033288,8635,604719,47170,127493,232114,14362,349304,293838,421856,349304,99.0,54.0
Andhra Pradesh,Nalgonda,17.113250515463907,79.16984453608244,539,3488809,7715,789225,53777,196134,286559,18927,464172,355700,479824,464172,98.0,57.0
Andhra Pradesh,Nizamabad,18.429485849056604,78.07523490566035,533,2551335,5261,545913,35036,141850,212631,10088,308270,245523,428790,308270,104.0,54.0
Andhra Pradesh,Prakasam,15.489039001601704,80.11665790176184,549,3397448,6151,763746,43611,133627,226045,9071,468022,321332,528518,468022,98.0,56.0
Andhra Pradesh,Srikakulam,18.570900998697432,84.25874814010675,542,2703114,3988,615432,32280,121213,180824,5264,297418,146386,178089,297418,101.0,55.0
Andhra Pradesh,Vizianagaram,18.28329696032972,83.45982854198873,543,2344474,4453,527736,24128,103591,168297,5002,278230,131289,242486,278230,102.0,53.0
Andhra Pradesh,Warangal,18.01752608695651,79.87422028985509,540,3512576,12952,828077,59006,248942,311837,15727,462819,388583,504897,462819,100.0,59.0
Andhra Pradesh,West Godavari,16.63297943925236,81.45912990654196,546,3936966,12050,1017568,55613,207586,605463,14687,648607,694857,720167,648607,100.0,67.0
Arunachal Pradesh,Changlang,27.36048479338845,96.37552644628106,253,148226,170,14593,1486,3633,13306,1102,9314,19606,9721,9314,93.0,49.0
Arunachal Pradesh,East Kameng,27.371194055944056,93.04741486013997,247,78690,57,5318,885,2330,755,577,3169,4703,4477,3169,103.0,49.0
Arunachal Pradesh,East Siang,28.15382352941176,95.06499226006191,251,99214,450,14231,1582,6540,6380,2072,9363,11735,8399,9363,98.0,63.0
Arunachal Pradesh,Kurung Kumey,28.04853351800553,93.24531994459834,256,92076,95,3911,969,2031,189,605,1320,4066,2173,1320,103.0,40.0
Arunachal Pradesh,Lohit,27.946785273972623,96.59670770547945,259,145726,312,17157,1471,5180,16426,1203,12215,17327,11806,12215,91.0,57.0
Arunachal Pradesh,Lower Dibang Valley,28.32651730103806,95.76567335640142,258,54080,207,5932,742,2795,4410,703,4345,6143,4945,4345,93.0,59.0
Arunachal Pradesh,Lower Subansiri,27.70849297297297,93.96226108108112,255,83030,381,12493,1598,5230,1063,2002,7285,11232,8804,7285,98.0,65.0
Arunachal Pradesh,Papum Pare,27.273529716981127,93.54468183962264,248,176573,2477,30539,7418,13840,3898,6454,23203,25706,23052,23203,98.0,69.0
Arunachal Pradesh,Tawang,27.680683962264148,91.82504245283016,245,49977,96,8635,494,1379,105,895,4824,7026,3562,4824,71.0,52.0
Arunachal Pradesh,Tirap,26.94406229508198,95.41470327868862,254,111975,98,16026,888,2134,963,679,6118,16937,6582,6118,94.0,43.0
Arunachal Pradesh,Upper Siang,28.8309244897959,95.00155765306124,252,35320,97,6198,392,1349,136,430,2823,4413,2714,2823,89.0,52.0
Arunachal Pradesh,Upper Subansiri,28.277196566523585,93.8991435622318,249,83448,139,5373,750,4276,782,569,3580,6658,5007,3580,100.0,54.0
Arunachal Pradesh,West Kameng,27.46486582278483,92.65015750452083,246,83947,202,14188,887,2693,348,1299,8634,8253,7421,8634,82.0,58.0
Arunachal Pradesh,West Siang,28.106296920289843,94.53510344202908,250,112274,303,14204,1300,6030,2129,1964,9593,15800,10692,9593,93.0,58.0
Assam,Barpeta,26.427872264631056,90.97912010178116,303,1693622,2078,84804,25286,46947,181352,5560,55319,243504,97152,55319,95.0,53.0
Assam,Bongaigaon,26.45012521994133,90.6734296187684,319,738804,2523,49866,12959,20221,97820,5837,36350,84687,47000,36350,97.0,59.0
Assam,Cachar,24.815570668693017,92.86849650455927,316,1736617,5316,140205,37541,45341,93297,8700,99887,298041,159266,99887,96.0,68.0
Assam,Darrang,26.58463215962442,92.04141338028155,325,928500,1166,45444,12084,22267,109858,3533,30616,95080,46789,30616,95.0,52.0
Assam,Dhemaji,27.586533438485816,94.71336908517353,308,686133,1192,28195,10410,28006,83663,3504,25776,57995,37742,25776,95.0,62.0
Assam,Dibrugarh,27.30612284482757,95.0998282327587,310,1326335,8817,136685,34479,59380,172503,21112,121737,214721,177759,121737,96.0,67.0
Assam,Goalpara,26.017277777777807,90.59869891598912,302,1008183,1364,78641,13524,18294,113964,4112,42628,129311,60181,42628,96.0,56.0
Assam,Golaghat,26.377219709794485,93.82583397823468,313,1066888,3073,82345,17636,36887,157029,9295,70930,153723,123520,70930,96.0,68.0
Assam,Hailakandi,24.457496089385486,92.59154664804475,318,659296,1211,44143,10615,11608,27808,2583,19998,119292,49075,19998,95.0,62.0
Assam,Jorhat,26.76244824016563,94.30197722567289,312,1092256,5651,122063,26357,62608,164118,16081,92598,155435,145819,92598,96.0,73.0
Assam,Kamrup,26.170939452054807,91.58863273972592,321,1517542,3109,122191,23468,55011,199425,10052,90941,180800,124575,90941,95.0,66.0
Assam,Karbi Anglong,26.08966454598031,93.11536570271832,314,956313,1923,53918,11340,18225,97148,3934,56689,96932,51860,56689,95.0,58.0
Assam,Karimganj,24.69660712250711,92.3679498575498,317,1228686,1933,70951,24699,21408,38218,3757,38570,210254,98861,38570,96.0,65.0
Assam,Kokrajhar,26.497246635730868,90.13997470997688,300,887142,1218,41373,14063,17287,115712,2996,32320,52532,28132,32320,96.0,55.0
Assam,Lakhimpur,27.14128805970149,94.0775949253732,307,1042137,1948,60296,15011,44212,133214,6904,45689,117971,73904,45689,97.0,66.0
Assam,Nagaon,26.26462170626351,92.9306191144708,305,2823768,5121,195631,45956,66994,333149,13979,127523,422431,250174,127523,96.0,61.0
Assam,Nalbari,26.46323767605632,91.40598521126763,323,771639,1631,68313,12360,39368,107774,4785,45938,103600,80855,45938,95.0,69.0
Assam,Sonitpur,26.73514926829268,92.85197804878044,306,1924110,4358,133368,31254,49901,275119,11760,106909,228882,177951,106909,96.0,58.0
Assam,Tinsukia,27.53549291139241,95.69055949367085,309,1327929,5135,161718,27948,38152,168890,13323,111738,217556,167479,111738,95.0,60.0
Bihar,Araria,26.211528119180603,87.30766554934816,209,2811569,2561,43290,29796,39627,279254,5041,40387,52549,225043,40387,92.0,43.0
Bihar,Aurangabad,24.774291867469877,84.45986024096379,235,2540073,2362,44456,31168,91371,195301,7145,45871,84329,166509,45871,93.0,58.0
Bihar,Aurangabad,24.774291867469877,84.45986024096379,515,3701282,23258,589477,69937,253253,192027,33322,403594,360410,616355,403594,92.0,68.0
Maharashtra,Aurangabad,20.0979228832952,75.32072196796334,235,2540073,2362,44456,31168,91371,195301,7145,45871,84329,166509,45871,93.0,58.0
Maharashtra,Aurangabad,20.0979228832952,75.32072196796334,515,3701282,23258,589477,69937,253253,192027,33322,403594,360410,616355,403594,92.0,68.0
Bihar,Banka,24.832355642023337,86.8664916342413,225,2034763,1704,62359,22300,35767,159201,3258,32859,46555,88429,32859,91.0,47.0
Bihar,Begusarai,25.54302613168723,86.12560144032932,222,2970541,4644,120373,43127,101836,295852,9821,76761,186662,193224,76761,89.0,52.0
Bihar,Bhagalpur,25.277192885375477,87.04213814229242,224,3037766,6764,174534,46929,118843,220531,8644,117040,189954,208730,117040,88.0,52.0
Bihar,Bhojpur,25.50666439393939,84.49407803030304,231,2728407,3661,62153,34658,131137,206776,7391,87879,112983,216412,87879,91.0,59.0
Bihar,Buxar,25.48593018867924,84.08808081760995,232,1706352,1784,46760,19324,64117,137996,5341,48405,64826,130771,48405,92.0,58.0
Bihar,Darbhanga,26.146187719298258,85.97387352472099,215,3937385,6280,127442,53205,129597,320695,10325,80085,202524,247667,80085,91.0,46.0
Bihar,Gaya,24.7266541547278,84.94291217765044,236,4391418,6856,112617,57011,131163,294227,11827,107970,167232,260921,107970,94.0,52.0
Bihar,Gopalganj,26.44874364161851,84.34636127167629,217,2562012,3707,69375,33596,79109,312727,9508,61380,84425,209045,61380,102.0,54.0
Bihar,Jamui,24.78418380462726,86.26316298200514,238,1760405,1839,32633,22414,29633,113424,4842,27056,45733,64170,27056,92.0,49.0
Bihar,Jehanabad,25.155679045643165,84.9208124481328,239,1125313,1106,27641,11302,45519,69637,2522,32086,50439,74772,32086,92.0,55.0
Bihar,Katihar,25.56565356037151,87.70466083591326,212,3071029,2941,60900,27263,57114,285976,5118,60110,108018,200849,60110,92.0,42.0
Bihar,Khagaria,25.53558891454964,86.56593256351037,223,1666886,1580,40641,21654,38697,99898,3120,31220,78061,88774,31220,89.0,46.0
Bihar,Kishanganj,26.324336758321294,87.95045007235886,210,1690400,1093,58718,14073,15386,177516,2436,28736,34858,108435,28736,95.0,44.0
Bihar,Lakhisarai,25.183449321266963,86.12825701357468,227,1000912,1186,44491,8862,27261,49052,2415,31048,52316,60658,31048,90.0,51.0
Bihar,Madhepura,25.77341929460581,86.8978443983403,213,2001762,1397,23236,23309,44955,169936,4560,23209,52388,139028,23209,91.0,42.0
Bihar,Madhubani,26.41380538172716,86.16328360450552,207,4487379,5319,113281,65548,137780,416574,11636,73851,166993,235903,73851,93.0,48.0
Bihar,Munger,25.198537962962963,86.54173672839504,226,1367765,2653,90461,17946,64469,112707,3755,69973,102385,109560,69973,88.0,59.0
Bihar,Muzaffarpur,26.18664417177915,85.32745092024543,216,4801062,10290,180651,73012,138916,548802,23333,172027,256532,346386,172027,90.0,52.0
Bihar,Nalanda,25.229345508982053,85.48053113772461,229,2877653,4156,101378,43848,133032,121583,7955,87070,149675,180298,87070,92.0,53.0
Bihar,Nawada,24.825708836206903,85.61594568965519,237,2219146,1841,31162,28411,64585,75606,3991,34020,77297,132057,34020,94.0,49.0
Bihar,Pashchim Champaran,27.16064352201258,84.30265911949685,203,3935042,3495,57546,41143,70669,425249,10911,69056,112382,270894,69056,91.0,45.0
Bihar,Patna,25.40297114503818,85.3198433587787,230,5838465,40692,546859,132582,452340,430595,49821,453344,507581,562795,453344,90.0,59.0
Bihar,Purba Champaran,26.68129336734693,85.00382155612242,204,5099371,7719,74979,70258,68781,611212,19282,96546,179522,391064,96546,90.0,45.0
Bihar,Purnia,25.81714801901739,87.40447606973065,211,3264619,4170,86058,33664,59996,291919,8390,63200,87774,234013,63200,92.0,41.0
Bihar,Rohtas,24.99170460829495,83.9350762672811,234,2959918,4594,114893,36279,161555,224824,10819,106218,128652,248462,106218,92.0,61.0
Bihar,Saharsa,25.821270696721303,86.54670819672135,214,1900661,1668,41342,19415,47051,129847,3824,30518,61597,113421,30518,91.0,42.0
Bihar,Samastipur,25.793205563909765,85.94833323308269,221,4261566,5379,88021,50918,129933,458268,10621,84248,159459,213527,84248,91.0,50.0
Bihar,Saran,25.89656077844312,84.82266287425155,219,3951862,4509,94787,37442,148065,431759,10948,128169,137526,276656,128169,95.0,55.0
Bihar,Sheikhpura,25.12472436548223,85.77839390862943,228,636342,631,20065,8873,19676,33652,1728,16279,30019,35018,16279,93.0,52.0
Bihar,Sheohar,26.458380748663107,85.29539411764709,205,656246,478,10004,6698,10091,73447,1410,11722,30398,52118,11722,89.0,43.0
Bihar,Sitamarhi,26.56570069686413,85.61172491289203,206,3423574,3460,66263,42461,70549,317432,7292,61089,152392,217626,61089,90.0,42.0
Bihar,Siwan,26.1736372013652,84.33766552901022,218,3330464,3834,52935,37833,119164,382782,10891,74071,124672,276680,74071,99.0,58.0
Bihar,Supaul,26.28157893772896,86.78496465201461,208,2229076,1845,51028,25078,45726,192734,4064,26559,47753,152501,26559,93.0,46.0
Bihar,Vaishali,25.8134703180212,85.39247597173153,220,3495021,4810,70001,39564,124448,397202,11316,101269,171904,208882,101269,89.0,55.0
Chandigarh,Chandigarh,30.7426,76.75872465753424,55,1055450,44283,231204,78113,174528,135055,60494,193932,206017,210801,193932,82.0,76.0
Chhattisgarh,Bastar,19.393866751269048,81.52895126903546,414,1413199,1782,157646,9042,32895,192012,4227,50155,62326,48350,50155,102.0,46.0
Chhattisgarh,Bilaspur,22.356942982456143,81.99770350877188,30,381956,1574,79146,6281,25474,5387,6573,61392,56814,61113,61392,98.0,75.0
Chhattisgarh,Bilaspur,22.356942982456143,81.99770350877188,406,2663629,8566,519704,30892,134637,345789,13137,193337,171271,135945,193337,97.0,60.0
Himachal Pradesh,Bilaspur,31.3780422907489,76.65316079295157,30,381956,1574,79146,6281,25474,5387,6573,61392,56814,61113,61392,98.0,75.0
Himachal Pradesh,Bilaspur,31.3780422907489,76.65316079295157,406,2663629,8566,519704,30892,134637,345789,13137,193337,171271,135945,193337,97.0,60.0
Chhattisgarh,Dhamtari,20.554912627291245,81.7569195519348,412,799781,1016,148926,4804,31319,119931,3069,67737,50033,29042,67737,101.0,68.0
Chhattisgarh,Durg,21.194463849287164,81.33181639511197,409,3343872,16141,614109,51289,202424,489008,28840,343369,228551,235446,343369,99.0,69.0
Chhattisgarh,Jashpur,22.77286167664669,83.8703962075848,402,851669,567,76783,5755,26161,100725,2442,20512,27142,13683,20512,101.0,58.0
Chhattisgarh,Korba,22.491712499999995,82.57604326923074,404,1206640,4544,202380,18004,61215,162148,8677,95963,77854,67505,95963,97.0,62.0
Chhattisgarh,Koriya,23.50412776859501,82.12515636363635,400,658917,1667,80023,7609,26802,67318,3402,38765,35636,38370,38765,97.0,60.0
Chhattisgarh,Mahasamund,21.223727037773354,82.65925427435384,411,1032754,961,212487,5614,33357,175231,3546,68012,48150,26449,68012,102.0,62.0
Chhattisgarh,Raigarh,22.008265068493166,83.27797698630134,403,1493984,3342,297308,13857,66358,225249,5979,98784,69909,50603,98784,99.0,64.0
Chhattisgarh,Raigarh,22.008265068493166,83.27797698630134,520,2634200,38570,547206,96301,204507,136247,43536,374021,369857,547214,374021,96.0,74.0
Maharashtra,Raigarh,18.453257637845976,73.0090609418579,403,1493984,3342,297308,13857,66358,225249,5979,98784,69909,50603,98784,99.0,64.0
Maharashtra,Raigarh,18.453257637845976,73.0090609418579,520,2634200,38570,547206,96301,204507,136247,43536,374021,369857,547214,374021,96.0,74.0
Chhattisgarh,Raipur,20.88603153846152,82.20032759615388,410,4063872,20261,728556,59523,227382,549069,30572,378113,267090,259502,378113,98.0,65.0
Chhattisgarh,Surguja,23.32719278728607,83.23582493887531,401,2359886,2737,253131,18983,64607,277773,8096,74614,130736,59109,74614,98.0,50.0
Daman and Diu,Daman,20.431616666666677,72.8392366071429,495,191173,1316,49249,4543,9128,14642,3163,28433,40951,40804,28433,53.0,79.0
Daman and Diu,Junagadh,20.72568199498111,70.83985639899612,479,2743082,6628,498326,26991,139957,189600,17447,318954,313730,344568,318954,95.0,67.0
Gujarat,Junagadh,20.929523011609785,70.54733890140345,479,2743082,6628,498326,26991,139957,189600,17447,318954,313730,344568,318954,95.0,67.0
Goa,North Goa,15.548723418714054,73.80667997909038,585,818008,23440,173951,56266,86781,41713,44342,146307,140924,159976,146307,96.0,81.0
Goa,South Goa,15.195278658183785,73.941792596877,586,640537,17624,138810,44299,57460,37799,35031,115535,116414,129135,115535,99.0,78.0
Gujarat,Ahmadabad,22.605425564971743,72.23898135593227,474,7214225,126341,1456046,273651,839295,680535,174812,1159650,1241055,1295122,1159650,90.0,75.0
Gujarat,Amreli,21.04832649310872,71.43457637825426,480,1514190,2538,273331,12765,50999,96477,10236,164282,173045,201157,164282,96.0,66.0
Gujarat,Anand,22.282718206229863,72.57782051557454,482,2092745,9902,378310,32523,110351,172466,19352,203467,230571,254683,203467,92.0,74.0
Gujarat,Banas Kantha,24.258538965517253,71.93205252873561,469,3120506,3424,396873,23149,66950,75914,22723,144792,146022,229091,144792,94.0,55.0
Gujarat,Bharuch,21.75787276237761,72.67326346710801,488,1551019,10257,309091,29531,74380,96508,21579,178535,204943,261660,178535,93.0,72.0
Gujarat,Bhavnagar,21.70219390341736,72.16272632761141,481,2880365,7297,500757,28925,93391,238912,17517,293361,292210,375112,293361,93.0,66.0
Gujarat,Gandhinagar,23.193679790026252,72.67221679790026,473,1391753,12107,262539,33662,108400,121735,26385,178594,171166,193174,178594,92.0,74.0
Gujarat,Jamnagar,22.410600414263328,69.62062005768233,477,2160119,11573,386538,30384,87523,157250,20471,270555,242841,285899,270555,94.0,65.0
Gujarat,Kachchh,23.48057203301311,68.82192301497916,468,2092371,9631,403294,31961,60386,83904,28788,250397,280257,329920,250397,91.0,60.0
Gujarat,Kheda,22.88765312500002,73.018803515625,483,2299885,5710,372226,24502,84223,146364,12788,171342,172599,220959,171342,94.0,72.0
Gujarat,Mahesana,23.529355452865065,72.45545194085031,471,2035064,7759,385609,33731,130723,143818,25163,245131,232825,290574,245131,93.0,74.0
Gujarat,Narmada,21.70666386292833,73.68403208722742,487,590297,576,101940,4081,14748,29316,2442,31194,27223,65190,31194,96.0,63.0
Gujarat,Navsari,20.866973318871995,72.86184869848157,490,1329672,6726,267679,24397,85041,136665,18669,153431,168150,201380,153431,96.0,75.0
Gujarat,Panch Mahals,22.80435606837605,73.61984598290586,484,2390776,3456,398937,19753,71810,120545,9656,90896,121676,181557,90896,95.0,60.0
Gujarat,Patan,23.80634198473284,71.75162977099237,470,1343734,2231,223424,12870,46355,66270,7802,108006,123977,157715,108006,94.0,62.0
Gujarat,Porbandar,21.55092351651571,69.71896987722886,478,585449,1653,117040,5639,22458,40784,4395,80820,72287,79955,80820,95.0,67.0
Gujarat,Rajkot,22.40603377715488,70.83679439383323,476,3804558,21785,747352,67370,266295,355586,55289,571843,543342,593448,571843,93.0,72.0
Gujarat,Sabar Kantha,23.71803594548552,73.13638790459964,472,2428589,5262,438606,25425,110817,112045,22379,180909,182583,231094,180909,95.0,65.0
Gujarat,Surat,21.25761372772093,72.93488716344339,492,6081322,55694,1252452,149331,379505,397563,106983,788447,1103767,1150519,788447,79.0,75.0
Gujarat,Surendranagar,22.82672007299272,71.48358740875906,475,1756268,2975,302068,15309,58389,135074,10088,177591,120741,192991,177591,93.0,62.0
Gujarat,The Dangs,20.801633877551023,73.6883518367347,489,228291,137,29794,1393,3490,6914,991,9262,13736,20702,9262,101.0,62.0
Gujarat,Vadodara,22.26133739279589,73.49433010291594,486,4165626,53606,798277,117818,314960,399901,72630,497049,543474,632580,497049,93.0,69.0
Gujarat,Valsad,20.44238231644259,72.9148584798345,491,1705678,11020,329218,31285,90912,119338,23938,188248,170861,232568,188248,92.0,69.0
Haryana,Ambala,30.3503672316384,76.94970310734456,70,1128350,12899,199681,32767,91472,133676,26122,172034,142922,186183,172034,88.0,72.0
Haryana,Bhiwani,28.728868064516128,76.02110225806452,81,1634445,5292,266244,25236,104875,99232,16793,176336,175689,241914,176336,89.0,65.0
Haryana,Faridabad,28.14873109756098,77.32718536585368,88,1809733,43437,333171,82673,259933,170927,63470,279652,296399,313812,279652,87.0,70.0
Haryana,Fatehabad,29.57298318584072,75.54608716814157,78,942011,3210,153301,13142,37741,86268,14030,107042,134586,152219,107042,90.0,59.0
Haryana,Gurgaon,28.043894789579163,77.01935130260523,86,1514432,67087,305751,102343,233402,103261,92934,248024,271169,290709,248024,85.0,73.0
Haryana,Hisar,29.23628731117825,75.84324682779452,80,1743931,10132,285004,33400,105346,147721,24642,202588,231144,273915,202588,87.0,64.0
Haryana,Jhajjar,28.59651868131869,76.61137142857145,83,958405,5034,168558,19241,58826,69952,14298,128007,123545,153834,128007,86.0,71.0
Haryana,Jind,29.45149821958457,76.29598575667653,77,1334152,5263,222462,23750,64599,113068,15836,160742,146428,186317,160742,87.0,62.0
Haryana,Kaithal,29.96068539094649,76.37698930041155,73,1074304,3724,187349,15301,51043,95704,12792,140195,126896,153556,140195,88.0,60.0
Haryana,Karnal,29.703200647249204,76.87488025889972,74,1505324,11163,267223,29253,101387,143754,26238,215813,215989,238149,215813,89.0,65.0
Haryana,Kurukshetra,30.05652659846548,76.78774680306903,72,964655,7356,171908,21951,71007,107683,20261,143316,136321,152922,143316,89.0,67.0
Haryana,Mahendragarh,28.1352161458333,76.14018072916659,84,922088,2624,135455,13908,60296,54810,8538,88012,74605,113329,88012,89.0,68.0
Haryana,Panchkula,30.700897142857134,76.97173238095236,69,561293,18615,103455,32174,83256,42737,29497,88378,77967,94560,88378,87.0,72.0
Haryana,Panipat,29.34352134146342,76.92895914634147,75,1205437,10024,209965,26719,75774,90548,17466,162321,176766,191098,162321,86.0,65.0
Haryana,Rewari,28.19164714828897,76.55956007604564,85,900332,5121,152651,18092,65143,71366,12161,108753,100436,134804,108753,90.0,71.0
Haryana,Rohtak,28.892517647058817,76.53123235294117,82,1061204,8482,193120,27225,100346,91682,16545,150160,147990,174390,150160,87.0,70.0
Haryana,Sirsa,29.63583446327684,74.90970480225988,79,1295189,6287,215527,22706,61620,117760,24468,150315,215371,216307,150315,90.0,60.0
Himachal Pradesh,Chamba,32.66741814595661,76.39354063116366,23,519080,1615,96082,5117,15506,1657,5074,62233,52553,46292,62233,99.0,62.0
Himachal Pradesh,Hamirpur,31.67668481012659,76.49767088607594,28,454768,2521,104120,7525,35620,7094,6665,86324,93858,86909,86324,110.0,79.0
Himachal Pradesh,Hamirpur,31.67668481012659,76.49767088607594,168,1104285,1196,55929,11037,59612,99240,3791,48564,68771,120259,48564,86.0,59.0
Uttar Pradesh,Hamirpur,25.738158381502892,79.82619479768789,28,454768,2521,104120,7525,35620,7094,6665,86324,93858,86909,86324,110.0,79.0
Uttar Pradesh,Hamirpur,25.738158381502892,79.82619479768789,168,1104285,1196,55929,11037,59612,99240,3791,48564,68771,120259,48564,86.0,59.0
Himachal Pradesh,Kangra,32.14093603238864,76.41205910931173,24,1510075,8053,330081,22753,91236,38456,22727,272579,220258,229975,272579,101.0,76.0
Himachal Pradesh,Kinnaur,31.60667184065933,78.51613736263741,34,84121,354,17865,2563,5118,190,2775,12925,13521,13902,12925,82.0,72.0
Himachal Pradesh,Kullu,31.90911922077925,77.40922649350647,26,437903,2623,91322,7010,23168,2450,8479,66910,55831,66129,66910,94.0,70.0
Himachal Pradesh,Mandi,31.635805940594054,76.96556930693067,27,999777,5333,214491,16401,54139,10927,15958,157314,181985,175038,157314,101.0,72.0
Himachal Pradesh,Shimla,31.155725451807253,77.62573042168668,33,814010,9177,172754,24127,80414,2813,23107,131450,123535,153356,131450,92.0,75.0
Himachal Pradesh,Sirmaur,30.682764453961443,77.43184689507493,32,529855,2220,91509,8593,23352,16691,7459,58902,60246,74088,58902,92.0,68.0
Himachal Pradesh,Solan,31.03864311926604,76.94442140672783,31,580320,5250,119866,14478,36803,12426,15117,94692,90587,105861,94692,88.0,74.0
Himachal Pradesh,Una,31.58330388349513,76.18353932038836,29,521173,2412,105929,8238,32120,41378,8059,88894,66103,87268,88894,98.0,77.0
Jammu and Kashmir,Doda,33.359614675767915,76.07163720136518,16,409936,596,61831,3077,12647,563,1804,19244,23060,26716,19244,92.0,53.0
Jammu and Kashmir,Jammu,32.713199095022645,74.8477520361991,21,1529958,19905,294739,46657,146501,68272,44063,240478,162522,231365,240478,88.0,74.0
Jammu and Kashmir,Kargil,33.565994894894914,76.63675315315312,4,140802,235,15824,1005,3077,488,1847,8008,17649,11887,8008,81.0,61.0
Jammu and Kashmir,Kathua,32.51781678321678,75.58901398601404,7,616435,1443,109422,6112,24330,17726,4687,66944,26033,47372,66944,89.0,63.0
Jammu and Kashmir,Pulwama,33.88414418604652,75.00921860465118,12,560440,1537,73629,5293,31286,5479,6164,45967,53836,61749,45967,91.0,52.0
Jammu and Kashmir,Punch,33.791241290322574,74.29593161290322,5,476835,346,62900,3342,13962,846,1731,16022,16586,19789,16022,89.0,55.0
Jammu and Kashmir,Srinagar,34.27312898550724,75.11021159420288,10,1236829,16413,165403,33831,121856,44501,34586,152945,164002,164263,152945,90.0,61.0
Jammu and Kashmir,Udhampur,33.04770670731707,75.15286951219511,19,554985,1214,73999,5744,17345,3948,3800,37323,18063,21542,37323,87.0,58.0
Jharkhand,Bokaro,23.6814965034965,85.98398374125864,355,2062330,9754,274726,37997,116396,247231,21098,179570,130956,149320,179570,92.0,62.0
Jharkhand,Chatra,24.11619945750453,84.93295804701627,347,1042886,590,27037,9115,21697,90400,2110,17627,18298,31242,17627,95.0,49.0
Jharkhand,Deoghar,24.33070100755672,86.75697632241814,350,1492073,1944,130193,13550,43979,174959,3714,64890,42762,51685,64890,93.0,53.0
Jharkhand,Dhanbad,23.854509090909097,86.40372924901185,354,2684487,11568,427173,46646,107382,283681,18631,290580,198464,224918,290580,91.0,64.0
Jharkhand,Dumka,24.275006125574265,87.27662450229711,362,1321442,1193,62110,10396,25593,175375,2912,32443,26873,28625,32443,98.0,51.0
Jharkhand,Garhwa,24.082114689265527,83.68664265536722,346,1322784,565,29373,8881,28144,108161,2671,21864,18018,37316,21864,94.0,49.0
Jharkhand,Giridih,24.30578509874329,86.08710915619386,349,2445474,1944,125431,19976,55122,226550,6290,63911,42269,65411,63911,94.0,51.0
Jharkhand,Godda,24.8189,87.2941735483871,351,1313551,874,43230,11925,30870,133332,1754,25764,26348,35837,25764,94.0,46.0
Jharkhand,Gumla,23.078532948929148,84.55056787479396,366,1025213,831,31687,7807,23742,130700,2181,18701,19545,19181,18701,99.0,55.0
Jharkhand,Jamtara,23.97873318077801,86.95325080091534,363,791042,808,49419,4959,14802,116861,1632,31194,14710,17759,31194,95.0,54.0
Jharkhand,Latehar,23.72511185840708,84.48298743362837,359,726978,340,38194,6240,13956,63127,1268,10697,14317,16406,10697,97.0,48.0
Jharkhand,Lohardaga,23.488796043165483,84.6605169064748,356,461790,351,28769,2954,13847,66235,1102,12504,13613,16335,12504,99.0,56.0
Jharkhand,Pakur,24.57260428082189,87.69691969178076,353,900422,328,31414,4535,9822,102037,923,16500,18395,15762,16500,99.0,39.0
Jharkhand,Palamu,24.196925968109337,84.20310842824594,358,1939869,2155,68238,19981,63595,159105,8015,51012,46445,82133,51012,93.0,53.0
Jharkhand,Ranchi,23.184235061391547,85.31781937244203,364,2914253,22538,350908,76565,195181,344888,34053,247137,227932,237057,247137,95.0,66.0
Jharkhand,Sahibganj,24.93667989690721,87.68264097938142,352,1150567,591,34879,9563,19832,95511,1285,24604,34451,35220,24604,95.0,42.0
Jharkhand,Simdega,22.608760391198054,84.59193691931536,367,599578,423,16865,4649,13674,86022,1158,7606,9547,9228,7606,100.0,57.0
Karnataka,Bagalkot,16.15860676328503,75.64526070853468,556,1889752,3745,301389,26297,82319,153879,9726,161280,66813,272956,161280,99.0,59.0
Karnataka,Bangalore Rural,12.936827087794448,77.47369314775169,583,990923,3729,214253,17066,51015,93908,10389,156967,179589,201156,156967,95.0,70.0
Karnataka,Belgaum,16.16107219152853,74.72329042357275,555,4779661,17560,808827,73497,201884,519937,35104,468274,316225,779974,468274,97.0,64.0
Karnataka,Bellary,15.074377548209377,76.47228471074374,565,2452595,9626,440374,40190,89475,164714,14163,291101,156110,417150,291101,98.0,58.0
Karnataka,Bidar,17.950361730769224,77.19459961538459,558,1703300,3971,271439,36072,54900,102869,9724,116314,72805,214601,116314,96.0,61.0
Karnataka,Bijapur,16.84015316666667,75.95909166666665,417,255230,117,12516,1462,3421,16830,305,4215,2843,7780,4215,98.0,34.0
Karnataka,Bijapur,16.84015316666667,75.95909166666665,557,2177331,4987,326594,36571,96990,161995,11722,164015,73300,297164,164015,96.0,57.0
Karnataka,Chikmagalur,13.425288289676422,75.67626502311249,570,1137961,4510,238505,18727,72420,76379,15446,169969,167369,246504,169969,101.0,72.0
Karnataka,Chitradurga,14.29102220394736,76.57821957236843,566,1659456,5711,307257,28897,75262,102607,7425,174344,107142,270699,174344,97.0,66.0
Karnataka,Davanagere,14.330414586709884,75.91723841166937,567,1945497,7320,372671,39416,123863,146389,15449,256051,188046,353628,256051,97.0,67.0
Karnataka,Dharwad,15.343831376975173,75.13831264108359,562,1847023,15013,347962,49585,137768,111313,21127,233604,212091,349008,233604,97.0,70.0
Karnataka,Gadag,15.507128256880746,75.64861302752298,561,1064570,3373,198064,15625,42053,73191,5205,104708,45668,191541,104708,98.0,66.0
Karnataka,Gulbarga,17.070459515951594,76.87503850385033,579,2566326,9752,404767,52483,104256,118463,12872,222126,118792,340251,222126,97.0,56.0
Karnataka,Hassan,12.945098749999998,76.11049549999997,574,1776421,4851,400702,23444,103152,138247,14979,272295,171212,403052,272295,101.0,69.0
Karnataka,Haveri,14.737582809224318,75.3961230607966,564,1597668,2456,295937,17819,55310,117943,5681,155076,121420,288495,155076,95.0,68.0
Karnataka,Kodagu,12.39684468085106,75.79336595744688,576,554519,3308,113931,10758,43225,20075,16963,83016,112626,125535,83016,102.0,74.0
Karnataka,Kolar,13.312799881235172,78.01376947743476,581,1536401,5051,309494,27235,71422,127046,9208,209698,141675,242038,209698,98.0,66.0
Karnataka,Koppal,15.651253271028034,76.1617048598131,560,1389920,2135,223166,15263,43967,97577,6211,113995,47931,218749,113995,99.0,58.0
Karnataka,Mandya,12.574901806239744,76.81570098522172,573,1805769,3367,391033,20265,102838,192330,8188,236020,159818,388674,236020,100.0,64.0
Karnataka,Mysore,12.248100259403367,76.52881802853437,577,3001127,28397,640868,80086,212541,252546,40420,441131,378503,611989,441131,99.0,65.0
Karnataka,Raichur,16.050795353982295,76.87368606194688,559,1928812,5200,314547,33903,50463,120959,11104,162411,74326,286629,162411,100.0,51.0
Karnataka,Shimoga,14.063845885634592,75.17882078103197,568,1752753,8791,363835,35207,111753,165796,20781,259899,286129,369749,259899,100.0,72.0
Karnataka,Tumkur,13.592467760074973,77.02297966260545,571,2678980,7971,562769,41751,143735,276586,14929,321848,206821,519944,321848,98.0,68.0
Karnataka,Udupi,13.450404228534568,74.72009990316337,569,1177361,9070,224814,24817,107279,79637,21349,173033,214808,229830,173033,109.0,79.0
Kerala,Alappuzha,9.542602965599087,76.38010796263319,598,2127789,28842,507913,71593,198858,229196,42404,425707,490935,445638,425707,110.0,87.0
Kerala,Ernakulam,10.004879301987431,76.26957729035381,595,3282388,88737,771287,184167,429880,250078,135307,696129,774743,739614,696129,103.0,87.0
Kerala,Idukki,9.80480963855423,77.04586641566264,596,1108974,8250,244844,24863,86136,19378,21976,207519,246878,203816,207519,101.0,83.0
Kerala,Kannur,11.941523076923056,75.35209891725934,589,2523003,32653,511167,83940,217203,66300,44108,423337,530436,497016,423337,114.0,85.0
Kerala,Kasaragod,12.33310309912974,75.07768497134369,588,1307375,10378,237670,32484,76192,27736,19438,179664,245747,236961,179664,108.0,79.0
Kerala,Kollam,8.929388820570157,76.6360775852431,600,2635375,31542,630767,83133,233402,157906,58867,525754,626758,532705,525754,111.0,85.0
Kerala,Kottayam,9.643701174068417,76.46059673302705,597,1974551,37849,464039,83999,221350,76041,73096,406922,464124,416985,406922,104.0,89.0
Kerala,Kozhikode,11.392924270557026,75.71158720159153,591,3086293,36791,641660,107602,250117,94227,54277,490719,668842,613671,490719,110.0,85.0
Kerala,Malappuram,10.97329875666072,75.93910775606876,592,4112920,27909,730119,119918,203779,96908,59145,485406,754074,692169,485406,110.0,81.0
Kerala,Palakkad,10.784926903553291,76.49980490693744,593,2809934,27162,587583,69440,180540,101999,43458,447169,564142,511877,447169,107.0,80.0
Kerala,Thiruvananthapuram,8.537101759082221,76.88711502868073,601,3301427,71621,783872,155321,381782,136964,96456,658734,780821,613196,658734,109.0,84.0
Kerala,Thrissur,10.458932647907687,76.12321940836945,594,3121200,56148,721625,132774,338600,248933,84016,616644,727823,712186,616644,111.0,86.0
Kerala,Wayanad,11.715277464788736,76.07587007042254,590,817420,4712,149864,15944,51111,15359,13027,109972,170170,146524,109972,103.0,79.0
Madhya Pradesh,Anuppur,23.18184220430107,81.86560000000007,461,749237,1290,81338,7266,31646,84977,2895,41067,29828,35107,41067,98.0,58.0
Madhya Pradesh,Ashoknagar,24.63098846153845,77.82974493927134,459,845071,619,84720,6016,22791,43637,2373,42898,26227,87957,42898,90.0,56.0
Madhya Pradesh,Balaghat,21.80020720640569,80.42170053380796,457,1701698,1712,277927,13306,74213,252422,4045,82475,73522,178778,82475,102.0,67.0
Madhya Pradesh,Barwani,21.702135714285724,74.91004719710673,441,1385881,1158,181139,8516,30754,51163,3102,48847,45979,95231,48847,98.0,40.0
Madhya Pradesh,Betul,21.964626315789477,77.7873428189117,447,1575362,2109,230974,13755,82761,114524,5740,94586,81190,184872,94586,97.0,60.0
Madhya Pradesh,Bhind,26.35951126187245,78.7618324287653,420,1703005,1166,107819,14368,50222,165675,4463,75539,68734,181907,75539,84.0,64.0
Madhya Pradesh,Bhopal,23.480726143790854,77.39246623093679,444,2371061,40788,452912,94729,266618,159808,60383,339750,352351,420371,339750,92.0,70.0
Madhya Pradesh,Burhanpur,21.364567254408065,76.24460478589425,467,757847,986,112420,5058,28237,37369,2142,58527,50613,110403,58527,95.0,54.0
Madhya Pradesh,Chhatarpur,24.813637376460004,79.56449299191374,425,1762375,1880,176056,15567,59704,197839,6206,82967,56851,120424,82967,88.0,54.0
Madhya Pradesh,Chhindwara,22.227966971713823,78.76413136439254,455,2090922,3588,344875,20034,112383,158956,8235,138316,111901,245014,138316,96.0,62.0
Madhya Pradesh,Damoh,23.76624407960196,79.47049303482588,428,1264219,1432,187731,10504,41158,116361,3031,66044,43355,90156,66044,91.0,59.0
Madhya Pradesh,Datia,25.90226439560441,78.63916571428574,422,786754,616,97696,5251,34853,65191,2897,55966,35209,90102,55966,87.0,62.0
Madhya Pradesh,Dewas,22.7851110021322,76.46088805970157,437,1563715,3518,270457,16523,55383,117794,9017,124826,112895,193157,124826,94.0,59.0
Madhya Pradesh,Dhar,22.572681718963157,75.1105620736698,438,2185793,2388,349639,18626,66721,114497,8080,123750,126246,198890,123750,96.0,49.0
Madhya Pradesh,Dindori,22.83738437047757,81.04332966714911,453,704524,554,62372,6447,15179,26743,1291,13765,9945,12242,13765,100.0,54.0
Madhya Pradesh,Guna,24.49043927178156,77.2235895968791,458,1241519,2482,144248,11740,42147,76571,5968,80642,47903,118411,80642,91.0,53.0
Madhya Pradesh,Gwalior,26.04074441964285,78.12782433035713,421,2032036,15779,306859,46454,193947,194763,21313,232840,221052,278747,232840,86.0,67.0
Madhya Pradesh,Harda,22.227659781121783,77.07022571819435,448,570465,986,95066,5376,27126,29025,3556,45661,51766,71326,45661,93.0,62.0
Madhya Pradesh,Hoshangabad,22.595268801996703,78.02168094841929,449,1241350,2871,198076,14456,84769,106654,7335,112371,122069,166373,112371,91.0,65.0
Madhya Pradesh,Indore,22.680265752128648,75.9133801324502,439,3276697,48691,593576,111478,382658,318881,64865,464337,480633,545277,464337,93.0,70.0
Madhya Pradesh,Jabalpur,23.18525572327043,79.98328754716981,451,2463289,20443,452023,58601,235072,271469,26487,285248,286802,326960,285248,93.0,71.0
Madhya Pradesh,Jhabua,22.419578015397768,74.40921616766468,464,1025048,744,125411,5591,20240,31319,2215,22470,24293,46247,22470,99.0,34.0
Madhya Pradesh,Katni,23.724416229116937,80.33819665871127,450,1292042,2179,172416,13094,53578,133962,3958,76207,56180,74604,76207,95.0,61.0
Madhya Pradesh,Mandla,22.70348712446353,80.38600543633753,454,1054905,912,143803,9042,35476,80798,2246,40591,33217,41648,40591,101.0,57.0
Madhya Pradesh,Mandsaur,24.19278764044944,75.43588667736759,433,1340411,2324,239885,12507,52546,123272,5435,109904,68287,137166,109904,96.0,62.0
Madhya Pradesh,Morena,26.37313504531724,77.88447341389724,419,1965970,1781,131486,20172,71005,172169,5829,89156,75574,183336,89156,84.0,60.0
Madhya Pradesh,Neemuch,24.70311893333336,75.06608186666664,432,826067,1945,145258,8342,42343,84293,4498,73279,46190,81157,73279,95.0,62.0
Madhya Pradesh,Panna,24.451325840092657,80.21133001158752,426,1016520,653,76097,8501,29795,96258,2219,30800,23811,46827,30800,91.0,54.0
Madhya Pradesh,Raisen,23.292518206521724,78.16305495923909,446,1331597,1141,194373,9931,48384,64233,6017,87258,82664,153849,87258,90.0,62.0
Madhya Pradesh,Rajgarh,23.785499026425583,76.66431223922116,442,1545814,1611,231130,12718,51499,85879,4185,76942,54463,146783,76942,96.0,52.0
Madhya Pradesh,Ratlam,23.503562290502792,75.14895782122909,434,1455069,3644,213825,14905,67192,106605,5757,107463,96263,151425,107463,97.0,57.0
Madhya Pradesh,Rewa,24.861184625158856,81.57572465057183,430,2365106,3406,251132,31194,122371,302445,11833,109351,126470,113424,109351,93.0,61.0
Madhya Pradesh,Sagar,23.800318709677374,78.71940357771273,427,2378458,4546,366494,24811,116753,174324,11291,160622,127876,251779,160622,89.0,65.0
Madhya Pradesh,Satna,24.62777621776502,80.75547048710598,429,2228935,3754,294702,22751,105499,251079,9401,117176,142613,120969,117176,93.0,62.0
Madhya Pradesh,Sehore,22.9297199679658,77.06780202883085,445,1311332,1566,212138,11166,50655,82644,6041,100011,80229,144152,100011,92.0,60.0
Madhya Pradesh,Seoni,22.33230487804874,79.66053863928111,456,1379131,1182,228695,10417,55984,140883,4048,66919,68267,112129,66919,98.0,63.0
Madhya Pradesh,Shahdol,23.44859864559819,81.4596831828442,460,1066063,1733,113184,10817,46513,132313,3819,45685,43590,45831,45685,97.0,57.0
Madhya Pradesh,Shajapur,23.566620317220547,76.33555181268885,436,1512681,1382,232735,10797,48671,105728,4200,88946,68975,164788,88946,94.0,59.0
Madhya Pradesh,Sheopur,25.78014810996563,77.16911116838484,418,687861,273,74770,5393,17091,32178,1634,29266,18710,38510,29266,90.0,48.0
Madhya Pradesh,Shivpuri,25.37802451874367,77.74861600810549,423,1726050,1852,148128,15304,44812,125237,5417,71501,52090,111617,71501,88.0,52.0
Madhya Pradesh,Sidhi,24.17547189952905,82.1053783359498,462,1127033,837,102228,10790,33067,90963,3320,26502,17833,27536,26502,96.0,53.0
Madhya Pradesh,Tikamgarh,25.14099852104666,78.89357064846428,424,1445166,1090,132725,10899,35034,153933,4139,62828,30506,95728,62828,90.0,52.0
Madhya Pradesh,Ujjain,23.319288862745065,75.80383717647058,435,1986864,7501,323379,27733,111290,163671,12167,181659,165304,260973,181659,96.0,62.0
Madhya Pradesh,Umaria,23.59601063063061,80.90879477477475,431,644758,839,67975,6360,18144,66004,1873,22502,19781,23450,22502,95.0,55.0
Madhya Pradesh,Vidisha,23.82838307984792,77.9013507604563,443,1458875,1926,181510,12888,59814,70884,5682,96565,73505,190365,96565,90.0,59.0
Maharashtra,Akola,20.746310479041902,77.12122320359276,501,1813906,6163,314490,24232,112574,126856,9037,176674,180311,342367,176674,95.0,78.0
Maharashtra,Amravati,21.16520991810736,77.67583503184723,503,2888445,9438,512492,36185,203273,211384,15285,302188,342031,553087,302188,95.0,78.0
Maharashtra,Bhandara,21.211792649727748,80.10950199637024,506,1200334,2932,227025,13165,67061,182892,5184,117299,168707,207488,117299,98.0,75.0
Maharashtra,Bid,18.952353340080982,75.69319706477731,523,2585049,5614,402052,29198,129996,119991,12836,205352,136943,374363,205352,92.0,66.0
Maharashtra,Buldana,20.56680611183355,76.39017880364096,500,2586258,4767,423036,24877,113783,121784,10034,225282,195038,451231,225282,93.0,73.0
Maharashtra,Chandrapur,20.095609090909075,79.31556380471388,509,2204307,8239,418666,31419,126488,248585,12746,229635,229471,409521,229635,96.0,72.0
Maharashtra,Dhule,21.274018690400517,74.58719071837263,498,2050862,6065,315332,27139,114931,107616,10912,174524,127610,324594,174524,95.0,63.0
Maharashtra,Gondiya,21.225008411214997,80.17522698598128,507,1322507,2866,239981,13595,57923,200918,5074,104997,151792,174150,104997,100.0,76.0
Maharashtra,Hingoli,19.59525302245251,77.09239412780653,512,1177345,1221,159114,9676,38698,48246,3833,73640,73460,180484,73640,94.0,67.0
Maharashtra,Jalgaon,20.8828943415638,75.55140421810695,499,4229917,14297,720791,56775,229987,229955,19560,431221,316969,764674,431221,92.0,68.0
Maharashtra,Jalna,19.984612534818933,75.98473607242339,514,1959046,3791,288895,17236,64060,84022,8400,158182,141841,301447,158182,94.0,61.0
Maharashtra,Kolhapur,16.44881301587301,74.12897150793648,530,3876001,22269,770005,71879,335413,383946,49081,507573,612194,771669,507573,96.0,73.0
Maharashtra,Latur,18.348687268993856,76.75812607802874,524,2454196,6217,381722,29758,153256,108626,13150,190739,178478,380772,190739,93.0,67.0
Maharashtra,Nagpur,21.196556862745105,79.02166176470584,505,4653570,57964,917626,135750,493236,577214,71592,728714,753520,914291,728714,95.0,79.0
Maharashtra,Nanded,19.209316983017,77.6829048951049,511,3361292,7548,488748,43055,156225,109371,12341,216364,217163,505657,216364,94.0,65.0
Maharashtra,Nandurbar,21.523175625248147,74.32638757443429,497,1648295,2579,186202,17047,58461,40529,6135,83144,91574,209973,83144,98.0,55.0
Maharashtra,Nashik,20.266912871287143,74.03824168316828,516,6107187,45039,904710,138887,373100,400486,79590,630639,551864,1000293,630639,93.0,71.0
Maharashtra,Osmanabad,18.19459456066944,75.99495575313809,525,1657576,3209,240042,18183,96847,93061,7974,117741,96586,271812,117741,92.0,69.0
Maharashtra,Parbhani,19.31032425249168,76.70163338870431,513,1836086,3982,272486,21196,81333,82350,6973,135933,103819,270114,135933,95.0,63.0
Maharashtra,Pune,18.51696171428573,74.12922881632647,521,9429408,235018,1925019,490260,1086650,735590,273326,1555272,1531966,1915302,1555272,91.0,76.0
Maharashtra,Ratnagiri,17.210195070127703,73.25725893866404,528,1615069,7752,367352,31062,65700,49177,15191,163470,273162,348019,163470,112.0,74.0
Maharashtra,Sangli,17.154930181086502,74.70713822937628,531,2822143,13212,485126,49056,214003,335852,29515,310230,380072,517310,310230,97.0,73.0
Maharashtra,Satara,17.6737908974359,74.18052064102558,527,3003741,14093,562653,57423,243457,246949,36046,374085,455235,575804,374085,99.0,74.0
Maharashtra,Sindhudurg,16.170948049777163,73.51329008172343,529,849651,3517,194228,15721,48418,39669,9264,98475,155696,181343,98475,104.0,78.0
Maharashtra,Solapur,17.837357937584812,75.42394823609216,526,4317756,15145,595560,59296,236302,419488,28219,376000,355107,698690,376000,94.0,67.0
Maharashtra,Thane,19.698767747440264,72.79882742564581,517,11060148,256170,2231800,551643,961719,403936,172210,1741244,1627847,2207808,1741244,89.0,74.0
Maharashtra,Wardha,20.80743024390242,78.57259105691062,504,1300774,4313,266155,16260,93772,129060,6970,170620,171680,260962,170620,95.0,78.0
Maharashtra,Washim,20.282282394366213,77.25502394366208,502,1197160,1875,196022,10757,47865,66675,3623,97022,87120,210412,97022,93.0,73.0
Maharashtra,Yavatmal,20.04258346738159,78.05326371760479,510,2772348,6094,446516,29917,123074,168661,12132,245261,198454,508756,245261,95.0,73.0
Manipur,Bishnupur,24.50712111801243,93.8246236024845,275,237399,676,34364,3447,20074,25026,2009,23140,41441,16508,23140,100.0,66.0
Manipur,Chandel,24.2635812987013,94.09443844155844,280,144182,184,18764,1782,8105,7705,908,8319,23065,11611,8319,93.0,63.0
Manipur,Churachandpur,24.30309718875504,93.38671506024085,274,274143,837,29894,4496,14523,12613,1807,17498,41638,28742,17498,97.0,71.0
Manipur,Senapati,25.08465586034914,94.03366234413956,272,479148,256,22798,2170,24940,6761,827,9623,29985,16321,9623,94.0,55.0
Manipur,Tamenglong,24.98312942238265,93.49450740072204,273,140651,125,11541,1362,7102,826,495,5233,17284,10189,5233,94.0,60.0
Manipur,Thoubal,24.545392553191498,93.97959893617023,276,422168,880,49507,5110,28550,57139,3141,34893,78949,29742,34893,100.0,64.0
Manipur,Ukhrul,25.05900314960629,94.44129566929138,279,183998,276,14026,2437,15636,1275,1107,7360,29549,28568,7360,94.0,71.0
Meghalaya,East Garo Hills,25.82728228228228,90.64684924924916,294,317917,288,24550,2368,2484,22238,1167,15115,46851,7915,15115,97.0,60.0
Meghalaya,East Khasi Hills,25.303763888888884,91.75922519841272,298,825922,5032,135941,19306,61639,5188,15048,79933,111335,109102,79933,101.0,70.0
Meghalaya,Jaintia Hills,25.33959557069844,92.37608160136298,299,395124,510,41677,4333,8039,1826,4790,17352,30960,45836,17352,101.0,47.0
Meghalaya,South Garo Hills,25.240568578553614,90.64560349127176,295,142334,179,10940,1625,826,2581,695,6721,15916,2347,6721,95.0,58.0
Meghalaya,West Garo Hills,25.495285185185185,90.03709947089942,293,643291,1630,51301,8872,10856,32839,3589,35051,73800,21585,35051,98.0,56.0
Meghalaya,West Khasi Hills,25.500889926739926,91.25364542124538,296,383461,149,32873,2462,6450,3325,1683,12548,29492,15981,12548,98.0,60.0
Mizoram,Aizawl,23.90781335453101,92.85359459459472,283,400309,4019,79804,21093,31310,4713,9581,59257,80980,73761,59257,101.0,85.0
Mizoram,Champhai,23.54166580976866,93.24221799485862,284,125745,186,23948,2263,4087,911,1237,13445,24612,21158,13445,98.0,80.0
Mizoram,Kolasib,24.2020004347826,92.73470391304348,282,83955,367,14853,1986,2530,1119,867,8392,16632,11294,8392,96.0,78.0
Mizoram,Lawngtlai,22.36102843137253,92.66964156862753,287,117894,162,9283,1329,2515,487,631,6657,15309,8506,6657,95.0,53.0
Mizoram,Lunglei,23.007717036172675,92.63512555425892,286,161428,482,26394,3725,5509,1020,1982,15871,28570,22896,15871,95.0,75.0
Mizoram,Mamit,23.73852942502819,92.4330803833147,281,86364,90,12158,1073,1771,550,565,6263,14784,8945,6263,93.0,70.0
Mizoram,Saiha,22.35744801061008,93.02827931034489,288,56574,168,7400,1194,2204,143,507,4797,9981,7587,4797,98.0,75.0
Mizoram,Serchhip,23.263864705882344,92.914158496732,285,64937,131,12315,987,2128,482,702,7043,12317,11822,7043,98.0,84.0
Nagaland,Dimapur,25.814176811594223,93.75074057971014,265,378811,3303,71413,12077,27532,18820,10008,50453,72398,69407,50453,92.0,73.0
Nagaland,Kohima,25.60311428571428,93.78600657596373,270,267988,1928,50724,7982,23439,1472,8428,29077,37427,43001,29077,93.0,74.0
Nagaland,Mokokchung,26.478911764705888,94.522426006192,262,194622,537,40154,2728,10299,2132,3805,20192,41057,41293,20192,93.0,82.0
Nagaland,Mon,26.69207374301676,95.03072988826828,261,250260,178,14398,2844,1772,2148,1007,5647,27663,28073,5647,90.0,48.0
Nagaland,Phek,25.63272986577182,94.56814563758392,266,163418,170,36182,1558,5926,549,1780,9553,29489,29897,9553,95.0,65.0
Nagaland,Tuensang,26.21104453280316,94.85809880715708,267,196596,155,24998,2251,2760,355,1063,7687,22080,30295,7687,93.0,60.0
Nagaland,Wokha,26.202611551155112,94.1990815181518,264,166343,198,25268,1757,8030,2907,1592,10923,22108,29411,10923,97.0,77.0
Nagaland,Zunheboto,26.028178205128206,94.50026666666668,263,140757,261,28846,2008,5560,713,2258,9954,22868,26285,9954,98.0,73.0
Orissa,Baleshwar,21.48570932311624,87.08085828011933,377,2320529,7370,296834,28289,105962,365510,8591,161266,145565,99843,161266,96.0,70.0
Orissa,Bhadrak,20.95262735257214,86.81496204516931,378,1506337,2637,164636,15609,67536,184434,3670,86821,62233,58614,86821,98.0,73.0
Orissa,Cuttack,20.407640646029623,85.7776810228802,381,2624470,15046,349587,40589,181601,391982,15494,236867,205665,189715,236867,94.0,77.0
Orissa,Dhenkanal,20.79887159353349,85.53226836027711,383,1192811,1810,117172,10600,43064,159449,3533,66148,51080,43089,66148,95.0,70.0
Orissa,Gajapati,19.121080882352945,84.14015091911759,389,577817,635,63112,5523,12556,28704,656,23672,23322,21818,23672,104.0,45.0
Orissa,Ganjam,19.2632617564534,84.80297710437702,388,3529031,9049,405298,41059,97147,369914,9066,257515,215821,170397,257515,98.0,63.0
Orissa,Jharsuguda,21.827058566978184,83.93581682242987,371,579505,2498,81433,7555,22010,102328,3966,57831,35184,34457,57831,95.0,70.0
Orissa,Kalahandi,19.784253092783523,83.1124043814433,395,1576869,1953,91171,12622,27385,226852,3547,58571,47442,43839,58571,100.0,51.0
Orissa,Kandhamal,20.092878624813142,84.02216352765326,390,733110,768,28736,6609,14962,66979,1278,19477,19176,16664,19477,104.0,55.0
Orissa,Kendrapara,20.606319815982264,86.83763247572003,379,1440361,1628,173107,11836,75926,189402,2686,96234,58387,53594,96234,101.0,76.0
Orissa,Khordha,20.054162322274863,85.52234834123229,386,2251673,35701,349860,75588,247498,325139,33514,253754,230413,230931,253754,93.0,78.0
Orissa,Koraput,18.82627794779476,82.81278469846964,398,1379647,3988,85766,17294,29000,112569,6922,60021,58682,74594,60021,103.0,41.0
Orissa,Malkangiri,18.25227930367506,81.98293636363628,399,613192,448,24604,3908,5585,62048,820,16397,12839,14559,16397,102.0,40.0
Orissa,Mayurbhanj,21.897621545157754,86.4030408052231,376,2519738,2950,140189,17999,72847,418435,6279,83167,109355,61298,83167,101.0,54.0
Orissa,Nayagarh,20.192895622119817,85.05614700460825,385,962789,1163,124984,8278,33148,141578,2270,50425,43798,30424,50425,92.0,71.0
Orissa,Nuapada,20.471309512195116,82.59152536585364,394,610382,757,43976,4221,10131,107595,1346,21975,23219,15564,21975,102.0,49.0
Orissa,Puri,19.83509174603177,85.86698989898981,387,1698730,3416,201605,16006,87000,244309,4693,118112,87997,83906,118112,96.0,76.0
Orissa,Rayagada,19.292840020060204,83.45860120361095,396,967911,1553,61543,9166,17681,80566,2090,42998,33500,38841,42998,105.0,42.0
Orissa,Sambalpur,21.515752380952385,84.34958483245157,372,1041099,5231,126498,14521,45828,176565,5946,91058,56878,56306,91058,98.0,68.0
Orissa,Sundargarh,22.06354819277107,84.50524819277099,374,2093437,12787,223537,35024,94710,341323,14641,164585,132466,139057,164585,97.0,64.0
Puducherry,Karaikal,10.876161726078813,79.82369793621002,637,200222,1868,47880,4870,18998,27503,2550,38869,30326,34908,38869,105.0,77.0
Puducherry,Mahe,12.006420793787758,75.28275021570326,636,41816,574,7150,1484,4475,868,858,6488,7041,7105,6488,118.0,87.0
Puducherry,Yanam,16.707695652173904,82.26187304347832,634,55626,207,12859,597,3836,6523,226,7393,10895,11899,7393,104.0,71.0
Punjab,Amritsar,31.548679820627772,74.79883856502238,49,2490656,29961,461231,63864,142399,286368,56185,413460,379230,430958,413460,89.0,68.0
Punjab,Bathinda,30.190524611973352,75.05685898004438,46,1388525,11284,255650,32253,70240,176384,36173,204051,232629,241449,204051,87.0,61.0
Punjab,Faridkot,30.591187250996025,74.79751553784862,45,617508,4348,113549,12276,29838,82761,15528,93053,99988,107033,93053,89.0,62.0
Punjab,Fatehgarh Sahib,30.64290947368421,76.36208394736842,40,600163,5138,113683,14294,34990,84834,18239,98080,99858,104467,98080,87.0,71.0
Punjab,Firozpur,30.63407535211269,74.40245732394365,43,2029074,10042,349662,31070,82448,237901,37105,277615,274015,303760,277615,89.0,60.0
Punjab,Gurdaspur,32.04283371212125,75.3204064393939,35,2298323,14428,411216,38445,104345,280874,32484,365644,258924,360051,365644,90.0,71.0
Punjab,Hoshiarpur,31.55157169811319,75.8469857442349,38,1586625,13747,319930,34328,93618,227316,33720,285904,210621,285730,285904,96.0,76.0
Punjab,Jalandhar,31.250336907216507,75.54400350515463,37,2193590,39082,446200,79134,162965,286365,72374,401189,392909,422876,401189,92.0,74.0
Punjab,Kapurthala,31.336592638036837,75.47641165644177,36,815168,9732,161206,23145,48221,107044,23561,144945,137713,149071,144945,91.0,71.0
Punjab,Ludhiana,30.76596397379912,75.83110851528383,41,3498739,58589,703624,123400,272280,461137,120172,604959,667902,669232,604959,87.0,73.0
Punjab,Mansa,29.919547714285724,75.4304922857143,47,769751,2673,140099,10085,27461,90845,12805,102314,99571,128019,102314,88.0,55.0
Punjab,Moga,30.756540067340065,75.1600845117845,42,995746,7897,183396,21662,37417,140084,26253,152610,167596,171503,152610,89.0,63.0
Punjab,Muktsar,30.31243303303303,74.5518747747748,44,901896,4571,166585,14077,36905,109666,23185,130482,133635,152188,130482,90.0,58.0
Punjab,Patiala,30.214540380693364,76.27505893949697,48,1895686,24274,352929,55105,141947,253101,57008,308440,309524,327085,308440,89.0,67.0
Punjab,Rupnagar,30.910937330754347,76.53743500967126,51,684627,6600,129123,17542,38823,95548,17248,111937,88385,114310,111937,92.0,73.0
Punjab,Sangrur,30.185045204336895,75.89437014178496,53,1655169,10736,305557,30955,73636,240629,35264,244837,259912,282915,244837,89.0,61.0
Rajasthan,Ajmer,26.199300378787903,74.6990419191919,119,2583052,13499,393498,41732,172683,187324,24509,250461,204571,305048,250461,95.0,59.0
Rajasthan,Alwar,27.55271738035265,76.65359630562563,104,3674179,9750,485723,45770,222622,242678,30207,258862,172919,330836,258862,89.0,59.0
Rajasthan,Banswara,23.453642032967014,74.44246868131869,125,1797485,2324,120603,15062,47094,39865,5287,48693,45574,72390,48693,98.0,46.0
Rajasthan,Baran,24.98023243243244,76.86210651828291,128,1222755,1363,161310,9491,49939,61129,5741,88344,42258,92962,88344,93.0,57.0
Rajasthan,Barmer,25.77070908045978,71.50297126436782,115,2603751,2766,126494,37730,39533,47366,27009,52926,66597,234694,52926,90.0,46.0
Rajasthan,Bharatpur,27.32411858037578,77.21752077244258,105,2548462,4179,288723,26106,132571,152915,10349,160190,85903,198184,160190,88.0,58.0
Rajasthan,Bhilwara,25.45119767759564,74.63947595628417,122,2408523,6207,373644,24014,106667,212245,17508,175393,115740,231845,175393,97.0,52.0
Rajasthan,Bikaner,28.12489068322981,73.26943322981371,101,2363937,7607,220793,29531,101714,97914,17113,138480,195188,301031,138480,91.0,54.0
Rajasthan,Bundi,25.48580716049379,75.79984074074079,121,1110906,1392,136969,7705,41052,86810,5787,78692,42082,77636,78692,92.0,53.0
Rajasthan,Chittaurgarh,24.631623761665463,74.80010997846382,126,1544338,4941,268172,16560,67155,173375,11261,119801,67820,138788,119801,97.0,53.0
Rajasthan,Churu,28.29330375536484,74.65846427038629,102,2039547,2577,231696,15259,77282,46531,9938,131174,200805,268120,131174,94.0,56.0
Rajasthan,Dausa,26.91234817629181,76.57342097264443,109,1634409,1719,195277,14539,90833,84799,6664,82113,50480,85330,82113,91.0,57.0
Rajasthan,Dhaulpur,26.72397054945053,77.74476219780222,106,1206516,1330,96086,9504,37856,80614,3614,51423,33172,77503,51423,85.0,57.0
Rajasthan,Dungarpur,23.75104807692308,73.84765641025645,124,1388552,1477,141275,11742,39312,18435,4385,46510,38043,62463,46510,99.0,49.0
Rajasthan,Ganganagar,29.256785412667963,73.56192303262948,99,1969168,6295,283142,24901,104071,149905,21515,181616,316783,332389,181616,89.0,61.0
Rajasthan,Hanumangarh,29.1813351791531,74.74632573289902,100,1774692,3360,243163,16217,84185,93418,16537,140280,278373,278085,140280,91.0,58.0
Rajasthan,Jaipur,27.033459290187885,75.77117286012533,110,6626178,76565,990085,182350,703673,393025,142866,764302,694107,816767,764302,91.0,65.0
Rajasthan,Jaisalmer,26.86900838548185,71.18371877346682,114,669919,754,43141,7416,10604,11291,5218,19388,26456,79428,19388,85.0,46.0
Rajasthan,Jalor,25.07578093797277,72.18647261724662,116,1828730,1585,161845,12794,25210,37596,12367,54245,51153,145214,54245,95.0,45.0
Rajasthan,Jhalawar,24.24725541474657,76.11242891705065,129,1411129,1750,220428,9403,47985,81160,5385,96225,46984,110586,96225,95.0,52.0
Rajasthan,Jhunjhunun,28.13517401247401,75.52840893970894,103,2137045,4828,297559,24178,158936,74695,15861,189511,205571,297078,189511,95.0,64.0
Rajasthan,Jodhpur,26.678460838536967,73.00450847457628,113,3687165,19335,408808,54808,177199,193641,40768,246002,248676,481462,246002,92.0,55.0
Rajasthan,Karauli,26.51901555555556,76.96081818181815,107,1458248,1059,132079,13045,67639,52008,3820,49752,41754,69366,49752,86.0,55.0
Rajasthan,Kota,25.175718080000014,76.18618928000001,127,1951014,12843,339899,36297,167778,150716,24848,236764,195286,265337,236764,91.0,67.0
Rajasthan,Nagaur,27.07862016048146,74.14215667001012,112,3307743,4449,347344,35328,117444,90046,26150,184518,209311,393528,184518,95.0,53.0
Rajasthan,Pali,25.80490393541874,73.55285640766907,118,2037573,4043,326793,19270,67021,175945,14175,154761,124303,274998,154761,99.0,53.0
Rajasthan,Rajsamand,25.24894767441859,73.96570215946844,123,1156597,1989,193276,9222,34286,65503,7060,80267,49135,105451,80267,99.0,54.0
Rajasthan,Sawai Madhopur,26.251081180223288,76.4219283891548,108,1335551,1887,140947,14310,70870,66594,4398,61935,52475,81379,61935,90.0,56.0
Rajasthan,Sikar,27.64644058641976,75.29317422839503,111,2677333,5647,339457,28382,181282,76325,22494,218772,222955,328313,218772,95.0,62.0
Rajasthan,Sirohi,24.7976905263158,72.75309131578943,117,1036346,2146,134089,10297,27076,52893,6343,65197,54218,91080,65197,94.0,46.0
Rajasthan,Tonk,26.153935071707927,75.79192216427637,120,1421326,1908,158264,12482,67155,93547,6295,83447,49974,92778,83447,95.0,53.0
Rajasthan,Udaipur,24.44076752136749,73.84029839743584,130,3068420,14211,357846,48517,142672,145780,27979,180282,150738,223077,180282,96.0,52.0
Sikkim,East,27.29600352941175,88.74908392156858,93,1709346,80037,352758,127465,246988,103064,87499,320151,331089,333378,320151,88.0,79.0
Tamil Nadu,Ariyalur,11.190514836795256,79.22249643916912,616,754894,1749,177502,8371,57524,104900,2937,165150,35933,40121,165150,101.0,64.0
Tamil Nadu,Chennai,13.058098905608748,80.28139151846806,603,4646732,217368,1096334,355838,905515,409796,146388,1055696,1057802,1073399,1055696,99.0,81.0
Tamil Nadu,Coimbatore,10.871376995940452,77.07619012178621,632,3458045,63273,896325,149920,440520,353990,87211,841918,630809,852521,841918,100.0,76.0
Tamil Nadu,Cuddalore,11.57587300613498,79.63002365371497,617,2605914,15396,598412,50938,227530,343988,19828,555029,230004,293116,555029,99.0,70.0
Tamil Nadu,Dharmapuri,12.300141200000006,78.11509813333339,630,1506843,3651,337972,18927,112592,164521,5843,310765,72402,181094,310765,95.0,61.0
Tamil Nadu,Dindigul,10.377801390820574,77.78011279554937,612,2159775,9155,500057,38677,163050,222834,15538,458486,187447,356703,458486,100.0,69.0
Tamil Nadu,Erode,11.267012155963302,77.42034334862392,610,2251744,18604,595211,58861,215514,368604,33405,557479,322847,503567,557479,99.0,66.0
Tamil Nadu,Kancheepuram,12.496424756511884,80.08820360135913,604,3998252,100322,961161,200738,526886,425865,68427,904619,651240,805076,904619,99.0,75.0
Tamil Nadu,Kanniyakumari,8.183466300191206,77.32053064053538,629,1870374,15673,465692,52943,254107,122491,21577,438938,427853,300602,438938,102.0,83.0
Tamil Nadu,Karur,10.79532776617955,78.08749686847604,613,1064493,4915,264949,17995,85595,153941,10648,250010,118708,168148,250010,102.0,68.0
Tamil Nadu,Madurai,9.904313833333331,78.01366033333332,623,3038252,34097,754141,95311,363152,325803,30852,708942,472221,551839,708942,99.0,75.0
Tamil Nadu,Nagapattinam,10.789468161718286,79.79437299431483,618,1616450,5585,381940,19692,125639,219886,9042,362211,163184,155663,362211,103.0,75.0
Tamil Nadu,Namakkal,11.33766638477801,78.14624841437633,609,1726601,8960,441044,31581,169206,262313,18550,418420,194417,330625,418420,99.0,68.0
Tamil Nadu,Perambalur,11.260137758112096,78.86034011799416,615,565223,1507,135751,7745,44025,59863,2259,125953,33135,56453,125953,100.0,66.0
Tamil Nadu,Pudukkottai,10.130514816433578,79.05444484265728,621,1618345,4494,354493,18272,111731,209024,7882,324444,109247,112174,324444,101.0,69.0
Tamil Nadu,Ramanathapuram,9.31286995153476,78.99185362412462,626,1353445,5172,291400,22379,97405,125445,5524,284169,120474,130578,284169,98.0,72.0
Tamil Nadu,Salem,11.629324202127655,78.2478257978723,608,3482056,20660,835377,63867,296399,441388,30660,749932,321173,573822,749932,95.0,66.0
Tamil Nadu,Sivaganga,9.960306580645158,78.56535729032255,622,1339101,5773,314270,24456,115894,172619,8222,304124,139173,149850,304124,100.0,72.0
Tamil Nadu,Thanjavur,10.387692255892237,79.3194869107745,620,2405890,13495,555582,42912,222410,343328,17231,522490,272623,275134,522490,103.0,74.0
Tamil Nadu,Theni,9.924066666666668,77.43458833333332,624,1245899,4667,312310,18830,101147,99044,6607,291879,134167,275383,291879,99.0,70.0
Tamil Nadu,Thiruvallur,13.275858101752885,80.19724702864492,602,3728104,75634,909400,174279,451321,374923,54505,857364,636991,786843,857364,99.0,75.0
Tamil Nadu,Thiruvarur,10.368927409395978,79.60322893959727,619,1264277,4416,303114,15535,99082,189906,6790,287260,130231,116640,287260,102.0,75.0
Tamil Nadu,Tiruvannamalai,12.419318947368414,79.23265631578953,606,2464875,6445,549077,27529,158041,309133,7851,505170,135162,262010,505170,99.0,66.0
Tamil Nadu,Vellore,12.784882632293078,79.02643283582084,605,3936331,20623,865913,69912,308514,491133,20393,797713,381181,693191,797713,101.0,70.0
Tamil Nadu,Virudhunagar,9.468872195892564,77.87641469194315,625,1942288,10219,505950,37357,167506,282826,9845,457317,167021,317795,457317,101.0,72.0
Tripura,Dhalai,23.781360477941163,91.94654283088232,291,378230,273,46875,5067,6425,22716,907,24750,58161,15987,24750,94.0,73.0
Tripura,North Tripura,24.121739755351683,92.17842538226292,292,693947,997,81601,10310,18419,42636,2726,43755,127388,50104,43755,97.0,75.0
Tripura,South Tripura,23.211874098057383,91.6065807585568,290,876001,948,133744,10393,26870,83598,3454,78159,174397,38316,78159,96.0,74.0
Tripura,West Tripura,23.780166241299337,91.41310788863107,289,1725739,6394,314567,36186,85405,182610,11356,231324,365146,166347,231324,96.0,79.0
Uttar Pradesh,Agra,26.99512974910393,78.05278291517321,146,4418797,27183,536402,82012,199395,444212,44989,433913,311695,463682,433913,87.0,61.0
Uttar Pradesh,Aligarh,27.93748576850093,78.00146831119557,143,3673889,13634,268120,58336,172585,364661,21667,262098,254141,356823,262098,88.0,57.0
Uttar Pradesh,Allahabad,25.392038662316445,82.05172446982063,175,5954391,24122,391542,85491,428871,701941,41965,355913,278760,373803,355913,90.0,62.0
Uttar Pradesh,Ambedkar Nagar,26.39119025974028,82.68282142857147,178,2397888,2509,99581,27308,194387,311614,9813,61470,67875,146958,61470,98.0,62.0
Uttar Pradesh,Auraiya,26.66892394014961,79.42637057356607,162,1379545,2404,65479,14279,79012,179939,5088,60174,72893,150177,60174,86.0,67.0
Uttar Pradesh,Azamgarh,26.008290954773837,83.01220251256285,191,4613913,6652,183381,47324,158303,521004,20757,159910,135150,299061,159910,102.0,60.0
Uttar Pradesh,Baghpat,29.045793499999988,77.30266300000001,139,1303048,2989,119121,19999,44164,114603,13301,111663,134051,171586,111663,86.0,61.0
Uttar Pradesh,Bahraich,27.691776300578027,81.46779783237004,180,3487731,2681,85814,35463,47690,397685,13451,71676,93687,223076,71676,89.0,40.0
Uttar Pradesh,Ballia,25.86075638297873,84.03651978723408,193,3239774,4672,119972,42969,200434,324245,10846,115533,124786,217983,115533,94.0,61.0
Uttar Pradesh,Balrampur,27.449076537911324,82.47158326180256,182,2148665,1551,57400,15510,37109,232350,6167,34497,48201,141528,34497,93.0,40.0
Uttar Pradesh,Banda,25.351885902503284,80.52487391304344,170,1799410,1655,73522,18612,63112,183817,5202,52233,90787,133063,52233,86.0,56.0
Uttar Pradesh,Bara Banki,26.922777025232424,81.35762350597606,176,3260699,3159,108116,26293,113799,446335,11935,116157,103904,305263,116157,91.0,52.0
Uttar Pradesh,Bareilly,28.51101940789474,79.43187072368416,150,4448359,15164,272830,56575,146446,456654,24436,300504,462993,428849,300504,89.0,49.0
Uttar Pradesh,Basti,26.833880454545447,82.69790590909092,185,2464464,3423,108101,30244,143642,309655,11477,76856,62328,172901,76856,96.0,57.0
Uttar Pradesh,Bijnor,29.313974259681096,78.45098815489754,134,3682713,7303,268353,37341,148185,378636,17143,260312,380737,470279,260312,92.0,58.0
Uttar Pradesh,Bulandshahr,28.34875862068968,78.01082758620684,142,3499171,7865,223922,38225,151182,321044,20979,254050,257848,393105,254050,90.0,58.0
Uttar Pradesh,Chandauli,25.1180859611231,83.25307062634984,196,1952756,3492,99602,20762,88299,220298,7313,109887,74557,129320,109887,92.0,60.0
Uttar Pradesh,Chitrakoot,25.159924623803,81.07666087551297,171,991730,827,41046,9437,35826,105264,2805,27006,27623,44786,27006,88.0,54.0
Uttar Pradesh,Deoria,26.42218856548857,83.8244070686071,190,3100946,4469,150001,36068,194341,353180,13388,122308,100060,257442,122308,102.0,60.0
Uttar Pradesh,Etah,27.591155309734443,78.70021858407083,201,1774480,2635,69591,19712,88607,189111,6644,79090,57574,141689,79090,87.0,59.0
Uttar Pradesh,Etawah,26.78817670157068,79.07621806282728,161,1581810,2964,113098,21506,118571,194564,7736,84543,93434,166012,84543,87.0,67.0
Uttar Pradesh,Faizabad,26.60589185185181,82.00783530864202,177,2470996,4746,127754,28625,179996,346448,15426,99531,94981,238464,99531,96.0,59.0
Uttar Pradesh,Farrukhabad,27.45063297872342,79.4406284574468,159,1885204,2624,88081,18733,110391,204261,6765,87314,113500,182879,87314,87.0,58.0
Uttar Pradesh,Fatehpur,25.8374362030905,80.85416203090509,172,2632733,3385,75263,33501,116445,331499,16758,97968,117023,211608,97968,90.0,57.0
Uttar Pradesh,Firozabad,27.20963993055552,78.42660624999998,147,2498156,5834,196080,31797,108627,278168,10940,169583,146593,237006,169583,88.0,61.0
Uttar Pradesh,Gautam Buddha Nagar,28.393311038961038,77.52462467532465,141,1648115,53181,257586,87188,101645,128362,78631,232925,245877,276925,232925,85.0,68.0
Uttar Pradesh,Ghaziabad,28.74997308584685,77.67441879350343,140,4681645,78116,695130,179552,255949,409265,119441,592753,701900,750601,592753,88.0,67.0
Uttar Pradesh,Ghazipur,25.624724775583484,83.5360854578097,195,3620268,5309,105767,50180,186306,383511,21169,139187,116171,216165,139187,95.0,61.0
Uttar Pradesh,Gonda,27.157215552099505,82.0226888024882,183,3433919,4313,104084,31811,118176,417980,13053,78099,66742,248745,78099,92.0,49.0
Uttar Pradesh,Gorakhpur,26.63315886792452,83.3549560377358,188,4440895,14597,296619,65360,273903,531565,30258,255280,213529,390206,255280,95.0,61.0
Uttar Pradesh,Hardoi,27.337409090909137,80.26411767676768,155,4092845,3845,95508,32065,103523,494925,12396,132969,173556,341739,132969,87.0,54.0
Uttar Pradesh,Jalaun,26.067954587155988,79.36686911314993,165,1689974,2217,104176,18615,106888,162840,7009,90428,114634,206627,90428,87.0,64.0
Uttar Pradesh,Jaunpur,25.70141280913127,82.54315351934063,194,4494204,8002,181467,52398,256398,534790,22876,211780,131852,239695,211780,102.0,61.0
Uttar Pradesh,Jhansi,25.45581535234902,78.89954580536917,166,1998603,8517,183340,40774,92586,194290,18860,163900,147302,238492,163900,89.0,65.0
Uttar Pradesh,Jyotiba Phule Nagar,28.870498984771597,78.39009365482241,137,1840221,2825,89329,18303,69522,167023,7361,101804,166582,205042,101804,91.0,53.0
Uttar Pradesh,Kannauj,26.993988617886185,79.64437940379408,160,1656616,2488,61491,18082,95072,178143,6011,64187,85404,157415,64187,88.0,61.0
Uttar Pradesh,Kanpur Dehat,26.43047641196011,79.98710083056478,163,1796184,2682,49753,25354,97740,220794,12752,65556,89107,197245,65556,86.0,65.0
Uttar Pradesh,Kaushambi,25.53587532051282,81.41811282051287,174,1599596,1503,43753,15029,45341,210669,4403,52946,46197,92723,52946,91.0,51.0
Uttar Pradesh,Kushinagar,26.892530675909864,83.92261542461007,189,3564544,3486,127331,35931,119625,432174,12849,103014,95139,266463,103014,96.0,55.0
Uttar Pradesh,Lalitpur,24.58877161016945,78.60082330508473,167,1221592,1079,77082,9906,34658,118185,5511,53524,42178,84273,53524,91.0,52.0
Uttar Pradesh,Lucknow,26.838233589251463,80.89706026871404,157,4589838,68506,582769,152257,639260,539667,90205,506413,539863,654614,506413,92.0,68.0
Uttar Pradesh,Mahoba,25.34529670138888,79.67863003472216,169,875958,1316,42936,11298,37165,85723,5755,35422,41692,70567,35422,88.0,56.0
Uttar Pradesh,Mainpuri,27.17386862302482,79.03501851015807,148,1868529,2642,79022,24451,111696,216358,7361,76780,72089,158322,76780,88.0,64.0
Uttar Pradesh,Mathura,27.59390432801821,77.62153416856502,145,2547184,8726,281239,37596,103102,212964,16580,221574,154472,240390,221574,86.0,59.0
Uttar Pradesh,Mau,26.01082203791469,83.50582654028433,192,2205968,2656,149908,26716,150462,228921,7411,82073,87874,160149,82073,98.0,62.0
Uttar Pradesh,Meerut,29.02957625698323,77.80611005586593,138,3443689,23717,425624,69473,275076,331961,42392,354359,421643,497784,354359,89.0,62.0
Uttar Pradesh,Mirzapur,25.10207959183675,82.60126628571429,199,2496970,4447,145997,24518,140668,309079,10205,136132,102361,131018,136132,90.0,57.0
Uttar Pradesh,Moradabad,28.851770406189537,78.73580193423597,135,4772006,11690,281758,61846,186489,399563,19316,283005,496107,532409,283005,91.0,47.0
Uttar Pradesh,Muzaffarnagar,29.470507977736563,77.64017847866423,133,4143512,10077,368153,56149,98691,377807,32866,331760,449383,553728,331760,89.0,58.0
Uttar Pradesh,Pilibhit,28.52024175035868,79.90103974175037,151,2031007,2870,83006,18097,66129,242225,7560,106945,162404,169387,106945,89.0,52.0
Uttar Pradesh,Pratapgarh,25.864842731707316,81.93530048780492,131,867848,716,71612,5961,19109,62048,2803,37216,20284,42404,37216,98.0,46.0
Uttar Pradesh,Pratapgarh,25.864842731707316,81.93530048780492,173,3209141,5149,140538,34400,197846,447696,15781,135185,74799,186336,135185,100.0,60.0
Uttar Pradesh,Rae Bareli,26.253902840059787,81.22260463378181,158,3405559,5184,247856,34788,153041,509053,13483,130197,112567,297883,130197,94.0,58.0
Uttar Pradesh,Rampur,28.83244727272725,79.10977333333337,136,2335819,3847,131112,25960,43839,247366,14386,134249,260618,254563,134249,91.0,45.0
Uttar Pradesh,Saharanpur,30.03381165217392,77.59905147826095,132,3466382,9699,404499,38816,154153,365960,21310,294410,343084,468873,294410,89.0,60.0
Uttar Pradesh,Sant Kabir Nagar,26.791596516393444,83.0387764344262,186,1715183,2031,79525,19729,63506,201340,6778,49191,38686,123330,49191,97.0,56.0
Uttar Pradesh,Shahjahanpur,27.991389350649328,79.8302275324675,152,3006538,3889,115163,27533,87355,333199,9927,135885,198260,243864,135885,87.0,50.0
Uttar Pradesh,Sitapur,27.501995963091108,80.85288881199547,154,4483992,3874,102040,34609,127750,575384,11679,123246,145037,371343,123246,89.0,51.0
Uttar Pradesh,Sonbhadra,24.46693268858798,83.06816324951639,200,1862559,5149,95582,25220,63846,203774,10279,80712,78826,90701,80712,92.0,53.0
Uttar Pradesh,Sultanpur,26.2846386419753,82.05710456790123,179,3797117,5956,233701,44008,176414,526011,18382,135697,101900,278962,135697,98.0,59.0
Uttar Pradesh,Unnao,26.63163990895297,80.636773292868,156,3108367,3476,99466,28719,101934,417537,10191,134235,141351,362568,134235,91.0,57.0
Uttar Pradesh,Varanasi,25.36057088888889,82.82529666666672,197,3676841,19214,336056,57583,281652,412569,24216,309911,295357,301753,309911,91.0,65.0
Uttaranchal,Almora,29.683532133676103,79.50165064267351,64,622506,1830,109876,9858,37742,2673,3396,70237,76958,77118,70237,114.0,70.0
Uttaranchal,Bageshwar,29.98703393393397,79.83954354354357,63,259898,435,47083,3595,10900,975,1149,25873,31604,28198,25873,109.0,69.0
Uttaranchal,Chamoli,30.58338611464965,79.56281095541402,57,391605,899,71524,5582,27168,861,2516,46579,45572,46547,46579,102.0,72.0
Uttaranchal,Champawat,29.29142393939393,80.07720212121217,65,259648,548,37725,3159,15110,7523,1387,22588,24284,24002,22588,98.0,68.0
Uttaranchal,Pithoragarh,30.14720631868129,80.34229230769236,62,483439,1344,95421,7932,28375,1600,3008,58954,61543,58037,58954,102.0,71.0
Uttaranchal,Tehri Garhwal,30.463700918635173,78.48783792650917,59,618931,1366,117239,7831,30704,3876,4324,68294,74477,78515,68294,108.0,66.0
Uttaranchal,Udham Singh Nagar,29.02779577677222,79.45629004524895,67,1648902,7883,254802,28053,111062,194624,16841,192243,207848,207469,192243,92.0,63.0
Uttaranchal,Uttarkashi,30.968958552036234,78.56880615384617,56,330086,602,52621,4104,18882,1353,1637,29400,29106,36136,29400,96.0,65.0
West Bengal,Bankura,23.081280892857155,87.12640053571437,339,3596674,4273,334670,34128,133465,546543,7898,177819,153487,136050,177819,96.0,62.0
West Bengal,Barddhaman,23.444453888888884,87.8150581111111,335,7717563,32323,1049943,141387,439823,1104486,46714,747286,949552,804546,747286,95.0,68.0
West Bengal,Birbhum,24.06389342723,87.65153089201888,334,3502404,5210,333752,39636,115743,451618,7305,191514,195797,186877,191514,96.0,62.0
West Bengal,Dakshin Dinajpur,25.342094363021435,88.69821679819614,331,1676276,2518,168069,24318,52345,225689,6211,103980,145974,86762,103980,96.0,65.0
West Bengal,Darjiling,26.839619571045585,88.33145067024122,327,1846823,10943,297176,38065,110193,125953,15192,222987,251140,196540,222987,97.0,71.0
West Bengal,Haora,22.401674174428507,87.99421176968654,341,4850029,30751,796953,99261,304594,576054,22295,539312,768670,455139,539312,94.0,74.0
West Bengal,Hugli,22.87929264705881,88.00010264705891,338,5519145,31725,965258,118459,380060,903374,24013,628340,903933,613305,628340,96.0,74.0
West Bengal,Jalpaiguri,26.62642031250004,89.04154375000003,328,3872846,9322,382500,48818,129393,502539,16431,268908,428531,302540,268908,95.0,65.0
West Bengal,Kolkata,22.550581481481483,88.3527648148148,342,4496694,136618,927602,252644,691804,252887,85605,816141,915319,868116,816141,91.0,80.0
West Bengal,Maldah,25.08026802575105,88.17191684549356,332,3988845,5357,297716,63525,92207,401774,9639,142659,266247,175732,142659,94.0,52.0
West Bengal,Murshidabad,24.25950655391121,88.16816860465121,333,7103807,7951,541169,79729,170051,840951,14050,296566,617358,388157,296566,96.0,57.0
West Bengal,Nadia,23.56410971055088,88.58293034547152,336,5167600,12787,623729,77210,209562,796698,18658,384314,955780,456320,384314,95.0,67.0
West Bengal,Puruliya,23.254192328767108,86.3968532876713,340,2930115,3551,189889,32862,77621,393127,6602,104489,67448,66231,104489,96.0,55.0
West Bengal,Uttar Dinajpur,26.044619165196977,88.23595232216337,330,3007134,2883,199307,31210,59457,362567,8150,105431,164644,179022,105431,94.0,50.0
